{"type": "FeatureCollection", "features": [{"geometry": {"type": "Point", "coordinates": [25.3167, 54.6833]}, "type": "Feature", "properties": {"lang": "Yiddish", "year": "1924", "title": "\u1e7een di \u1e7fegn kraytsn zikh"}}, {"geometry": {"type": "Point", "coordinates": [28.9647, 41.0186]}, "type": "Feature", "properties": {"lang": "Turkish", "year": "2007", "title": "\u0130stikl\u00e2l Harbi"}}, {"geometry": {"type": "Point", "coordinates": [12.3333, 51.3333]}, "type": "Feature", "properties": {"lang": "German", "year": "1914", "title": "\u00dcber den wahrhaften Krieg"}}, {"geometry": {"type": "Point", "coordinates": [13.3833, 52.5167]}, "type": "Feature", "properties": {"lang": "German", "year": "1917", "title": "\u00dcber den U-Boot-Krieg"}}, {"geometry": {"type": "Point", "coordinates": [16.3667, 48.2]}, "type": "Feature", "properties": {"lang": "German", "year": "1914", "title": "\u00d6sterreichische Feldbriefe"}}, {"geometry": {"type": "Point", "coordinates": [16.3667, 48.2]}, "type": "Feature", "properties": {"lang": "German", "year": "1914", "title": "\u00d6sterreichische Feldbriefe"}}, {"geometry": {"type": "Point", "coordinates": [16.3667, 48.2]}, "type": "Feature", "properties": {"lang": "German", "year": "1914", "title": "\u00d6sterreichische Feldbriefe"}}, {"geometry": {"type": "Point", "coordinates": [32.8644, 39.9272]}, "type": "Feature", "properties": {"lang": "Turkish", "year": "2009", "title": "\u00c7anakkale Tahkimat Haritas\u0131"}}, {"geometry": {"type": "Point", "coordinates": [2.34, 48.86]}, "type": "Feature", "properties": {"lang": "French", "year": "1914", "title": "\u00c1 l'ordre du jour"}}, {"geometry": {"type": "Point", "coordinates": [2.34, 48.86]}, "type": "Feature", "properties": {"lang": "French", "year": "1922", "title": "\u00c0 travers les lignes ennemies"}}, {"geometry": {"type": "Point", "coordinates": [2.34, 48.86]}, "type": "Feature", "properties": {"lang": "French", "year": "1916", "title": "\u00c0 la Belgique"}}, {"geometry": {"type": "Point", "coordinates": [2.34, 48.86]}, "type": "Feature", "properties": {"lang": "Spanish", "year": "1915", "title": "\u00bfC\u00f3mo puede ser justa la guerra alguna vez?"}}, {"geometry": {"type": "Point", "coordinates": [44.3833, 33.3333]}, "type": "Feature", "properties": {"lang": "Arabic", "year": "1984", "title": "I\u1e25til\u0101l al-Bar\u012b\u1e6d\u0101n\u012b wa-al-\u1e63i\u1e25\u0101fah al-\u02bbIr\u0101q\u012byah"}}, {"geometry": {"type": "Point", "coordinates": [13.7333, 51.05]}, "type": "Feature", "properties": {"lang": "English", "year": "1914", "title": "[With Germany's telegraphic communication cut off from America a net of lies has been spun about her]"}}, {"geometry": {"type": "Point", "coordinates": [13.3, 52.5167]}, "type": "Feature", "properties": {"lang": "German", "year": "1914", "title": "[Ursachen des gegenw\u00e4rtigen Weltkrieges]"}}, {"geometry": {"type": "Point", "coordinates": [13.3833, 52.5167]}, "type": "Feature", "properties": {"lang": "German", "year": "1914", "title": "[Ursachen des gegenw\u00e4rtigen Weltkrieges]"}}, {"geometry": {"type": "Point", "coordinates": [2.34, 48.86]}, "type": "Feature", "properties": {"lang": "French", "year": "1919", "title": "question des nationalit\u00e9s qui occupent des territoires russes...]"}}, {"geometry": {"type": "Point", "coordinates": [-71.1162, 42.3709]}, "type": "Feature", "properties": {"lang": "English", "year": "1918", "title": "miscellaneous collection of articles and letters by or about Ruth Holden, Radcliffe A.B., Harvard A.M., Fellow of Newnham College, paleobotanist]"}}, {"geometry": {"type": "Point", "coordinates": [-71.1162, 42.3709]}, "type": "Feature", "properties": {"lang": "English", "year": "1918", "title": "miscellaneous collection of articles and letters by or about Ruth Holden, Radcliffe A.B., Harvard A.M., Fellow of Newnham College, paleobotanist]"}}, {"geometry": {"type": "Point", "coordinates": [-87.68, 41.84]}, "type": "Feature", "properties": {"lang": "German", "year": "1915", "title": "Zur Gr\u00fcndung einer deutsch-amerikanischen wirtschaftlichen Vereinigung"}}, {"geometry": {"type": "Point", "coordinates": [9.18333, 48.7667]}, "type": "Feature", "properties": {"lang": "German", "year": "1915", "title": "Zum Weltvolk hindurch!"}}, {"geometry": {"type": "Point", "coordinates": [13.3833, 52.5167]}, "type": "Feature", "properties": {"lang": "German", "year": "1915", "title": "Zum Schowuausfest, dem Tag der Offenbarung, 1915"}}, {"geometry": {"type": "Point", "coordinates": [13.3833, 52.5167]}, "type": "Feature", "properties": {"lang": "German", "year": "1916", "title": "Zum Schowuausfest (dem Tage der Offenbarung) 1916"}}, {"geometry": {"type": "Point", "coordinates": [13.3833, 52.5167]}, "type": "Feature", "properties": {"lang": "German", "year": "1916", "title": "Zum Passahfest 1916"}}, {"geometry": {"type": "Point", "coordinates": [13.3833, 52.5167]}, "type": "Feature", "properties": {"lang": "German", "year": "1915", "title": "Zum Passahfest 1915"}}, {"geometry": {"type": "Point", "coordinates": [13.3833, 52.5167]}, "type": "Feature", "properties": {"lang": "German", "year": "1915", "title": "Zum Chanukkafest 1915"}}, {"geometry": {"type": "Point", "coordinates": [13.3833, 52.5167]}, "type": "Feature", "properties": {"lang": "German", "year": "1914", "title": "Zum Chanukafest 1914"}}, {"geometry": {"type": "Point", "coordinates": [24.0667, 54.9167]}, "type": "Feature", "properties": {"lang": "Yiddish", "year": "1933", "title": "Zikhroynes\u0300 un iberlebungen fun der \u1e7fel\u1e6d-mil\u1e25ome 1914-1918"}}, {"geometry": {"type": "Point", "coordinates": [13.3833, 52.5167]}, "type": "Feature", "properties": {"lang": "German", "year": "1915", "title": "Zehn Jahre Ententepolitik"}}, {"geometry": {"type": "Point", "coordinates": [4.3, 52.0833]}, "type": "Feature", "properties": {"lang": "Dutch", "year": "1999", "title": "Zacht en eervol"}}, {"geometry": {"type": "Point", "coordinates": [24.1, 56.95]}, "type": "Feature", "properties": {"lang": "Yiddish", "year": "1929", "title": "Yuli 1914"}}, {"geometry": {"type": "Point", "coordinates": [-74.0064, 40.7142]}, "type": "Feature", "properties": {"lang": "English", "year": "1936", "title": "Youth demands peace"}}, {"geometry": {"type": "Point", "coordinates": [-74.0064, 40.7142]}, "type": "Feature", "properties": {"lang": "English", "year": "1919", "title": "Your post-war opportunity"}}, {"geometry": {"type": "Point", "coordinates": [-72.6851, 41.7637]}, "type": "Feature", "properties": {"lang": "English", "year": "1917", "title": "Your part in America's war"}}, {"geometry": {"type": "Point", "coordinates": [-90.1978, 38.6272]}, "type": "Feature", "properties": {"lang": "English", "year": "1917", "title": "Your money or my life!"}}, {"geometry": {"type": "Point", "coordinates": [-74.0064, 40.7142]}, "type": "Feature", "properties": {"lang": "English", "year": "1919", "title": "Your Amish Mennonite"}}, {"geometry": {"type": "Point", "coordinates": [2.34, 48.86]}, "type": "Feature", "properties": {"lang": "French", "year": "1918", "title": "Yougoslavie et Autriche"}}, {"geometry": {"type": "Point", "coordinates": [-74.0064, 40.7142]}, "type": "Feature", "properties": {"lang": "English", "year": "2001", "title": "Yanks"}}, {"geometry": {"type": "Point", "coordinates": [2.34, 48.86]}, "type": "Feature", "properties": {"lang": "English", "year": "1918", "title": "Yank talk"}}, {"geometry": {"type": "Point", "coordinates": [-72.9282, 41.3082]}, "type": "Feature", "properties": {"lang": "English", "year": "1920", "title": "Yale in the Great War"}}, {"geometry": {"type": "Point", "coordinates": [13.3833, 52.5167]}, "type": "Feature", "properties": {"lang": "German", "year": "1918", "title": "Worte und Taten"}}, {"geometry": {"type": "Point", "coordinates": [-87.68, 41.84]}, "type": "Feature", "properties": {"lang": "English", "year": "1918", "title": "World-organization after the World War"}}, {"geometry": {"type": "Point", "coordinates": [-74.0064, 40.7142]}, "type": "Feature", "properties": {"lang": "English", "year": "1918", "title": "World's safety depends upon taking power and wealth from Germany"}}, {"geometry": {"type": "Point", "coordinates": [-78.7333, 42.6167]}, "type": "Feature", "properties": {"lang": "English", "year": "1918", "title": "World war issues and ideals"}}, {"geometry": {"type": "Point", "coordinates": [-0.093145, 51.5142]}, "type": "Feature", "properties": {"lang": "English", "year": "1919", "title": "World tyranny or world freedom"}}, {"geometry": {"type": "Point", "coordinates": [-74.0064, 40.7142]}, "type": "Feature", "properties": {"lang": "English", "year": "1974", "title": "World power or decline"}}, {"geometry": {"type": "Point", "coordinates": [85.1167, 25.6]}, "type": "Feature", "properties": {"lang": "English", "year": "2002", "title": "World politics and the orient"}}, {"geometry": {"type": "Point", "coordinates": [-77.0367, 38.895]}, "type": "Feature", "properties": {"lang": "English", "year": "1928", "title": "World War records, base maps and overlays"}}, {"geometry": {"type": "Point", "coordinates": [-74.0064, 40.7142]}, "type": "Feature", "properties": {"lang": "English", "year": "2009", "title": "World War One"}}, {"geometry": {"type": "Point", "coordinates": [-74.0064, 40.7142]}, "type": "Feature", "properties": {"lang": "English", "year": "1967", "title": "World War I, a turning point in modern history"}}, {"geometry": {"type": "Point", "coordinates": [-73.2121, 44.4759]}, "type": "Feature", "properties": {"lang": "English", "year": "2004", "title": "World War I tech"}}, {"geometry": {"type": "Point", "coordinates": [-76.8619, 38.9671]}, "type": "Feature", "properties": {"lang": "English", "year": "2004", "title": "World War I memories"}}, {"geometry": {"type": "Point", "coordinates": [-77.0333, 38.8]}, "type": "Feature", "properties": {"lang": "English", "year": "2005", "title": "World War I journal of A. Mullineaux"}}, {"geometry": {"type": "Point", "coordinates": [-118.601, 34.2572]}, "type": "Feature", "properties": {"lang": "English", "year": "2001", "title": "World War I films of the silent era"}}, {"geometry": {"type": "Point", "coordinates": [-118.601, 34.2572]}, "type": "Feature", "properties": {"lang": "English", "year": "2001", "title": "World War I films of the silent era"}}, {"geometry": {"type": "Point", "coordinates": [-77.0333, 38.8]}, "type": "Feature", "properties": {"lang": "English", "year": "2005", "title": "World War I diary of Mrs. W. Seymour"}}, {"geometry": {"type": "Point", "coordinates": [-77.0333, 38.8]}, "type": "Feature", "properties": {"lang": "English", "year": "2005", "title": "World War I diary of Miss G. West"}}, {"geometry": {"type": "Point", "coordinates": [-77.0333, 38.8]}, "type": "Feature", "properties": {"lang": "English", "year": "2005", "title": "World War I diary of Lydia Peile"}}, {"geometry": {"type": "Point", "coordinates": [-76.8619, 38.9671]}, "type": "Feature", "properties": {"lang": "English", "year": "2012", "title": "World War I and the origins of U.S. military intelligence"}}, {"geometry": {"type": "Point", "coordinates": [-74.0064, 40.7142]}, "type": "Feature", "properties": {"lang": "English", "year": "1979", "title": "World War I and the origin of civil liberties in the United States"}}, {"geometry": {"type": "Point", "coordinates": [-76.6167, 39.2833]}, "type": "Feature", "properties": {"lang": "English", "year": "1967", "title": "World War I and the American novel"}}, {"geometry": {"type": "Point", "coordinates": [-119.698, 34.4208]}, "type": "Feature", "properties": {"lang": "English", "year": "2005", "title": "World War I"}}, {"geometry": {"type": "Point", "coordinates": [-87.68, 41.84]}, "type": "Feature", "properties": {"lang": "English", "year": "2004", "title": "World War I"}}, {"geometry": {"type": "Point", "coordinates": [-74.0064, 40.7142]}, "type": "Feature", "properties": {"lang": "English", "year": "1962", "title": "World War I"}}, {"geometry": {"type": "Point", "coordinates": [-1.25, 51.75]}, "type": "Feature", "properties": {"lang": "English", "year": "1998", "title": "World War I"}}, {"geometry": {"type": "Point", "coordinates": [-1.25, 51.75]}, "type": "Feature", "properties": {"lang": "English", "year": "1998", "title": "World War I"}}, {"geometry": {"type": "Point", "coordinates": [-80.0, 40.45]}, "type": "Feature", "properties": {"lang": "English", "year": "2006", "title": "World War I"}}, {"geometry": {"type": "Point", "coordinates": [-87.68, 41.84]}, "type": "Feature", "properties": {"lang": "English", "year": "1918", "title": "Work of the Children's Bureau, Department of Civil Affairs, American Red Cross, France"}}, {"geometry": {"type": "Point", "coordinates": [-0.093145, 51.5142]}, "type": "Feature", "properties": {"lang": "English", "year": "1933", "title": "Words, words, words!"}}, {"geometry": {"type": "Point", "coordinates": [-87.8667, 37.1]}, "type": "Feature", "properties": {"lang": "English", "year": "1939", "title": "Words that won the war"}}, {"geometry": {"type": "Point", "coordinates": [-79.0558, 35.9132]}, "type": "Feature", "properties": {"lang": "English", "year": "1985", "title": "Woodrow Wilson, Revolutionary Germany, and peacemaking, 1918-1919"}}, {"geometry": {"type": "Point", "coordinates": [-74.0064, 40.7142]}, "type": "Feature", "properties": {"lang": "English", "year": "1943", "title": "Woodrow Wilson's Fourteen Points, January 8, 1918"}}, {"geometry": {"type": "Point", "coordinates": [-72.9282, 41.3082]}, "type": "Feature", "properties": {"lang": "English", "year": "1921", "title": "Woodrow Wilson and the world war"}}, {"geometry": {"type": "Point", "coordinates": [-72.9282, 41.3082]}, "type": "Feature", "properties": {"lang": "English", "year": "1921", "title": "Woodrow Wilson and the world war"}}, {"geometry": {"type": "Point", "coordinates": [-74.0064, 40.7142]}, "type": "Feature", "properties": {"lang": "English", "year": "1944", "title": "Woodrow Wilson and the lost peace"}}, {"geometry": {"type": "Point", "coordinates": [-74.0064, 40.7142]}, "type": "Feature", "properties": {"lang": "English", "year": "1945", "title": "Woodrow Wilson and the great betrayal"}}, {"geometry": {"type": "Point", "coordinates": [-72.9282, 41.3082]}, "type": "Feature", "properties": {"lang": "English", "year": "1921", "title": "Woodrow Wilson and the World War"}}, {"geometry": {"type": "Point", "coordinates": [-74.0064, 40.7142]}, "type": "Feature", "properties": {"lang": "English", "year": "1952", "title": "Woodrow Wilson and the Far East"}}, {"geometry": {"type": "Point", "coordinates": [0.116667, 52.2]}, "type": "Feature", "properties": {"lang": "English", "year": "1987", "title": "Woodrow Wilson and the American diplomatic tradition"}}, {"geometry": {"type": "Point", "coordinates": [0.083333, 52.3333]}, "type": "Feature", "properties": {"lang": "English", "year": "1987", "title": "Woodrow Wilson and the American diplomatic tradition"}}, {"geometry": {"type": "Point", "coordinates": [-79.0558, 35.9132]}, "type": "Feature", "properties": {"lang": "English", "year": "1982", "title": "Woodrow Wilson and a revolutionary world, 1913-1921"}}, {"geometry": {"type": "Point", "coordinates": [-74.0064, 40.7142]}, "type": "Feature", "properties": {"lang": "English", "year": "1985", "title": "Woodrow Wilson and World War I, 1917-1921"}}, {"geometry": {"type": "Point", "coordinates": [-122.273, 37.8716]}, "type": "Feature", "properties": {"lang": "English", "year": "1991", "title": "Woodrow Wilson"}}, {"geometry": {"type": "Point", "coordinates": [-87.9806, 42.0884]}, "type": "Feature", "properties": {"lang": "English", "year": "1979", "title": "Woodrow Wilson"}}, {"geometry": {"type": "Point", "coordinates": [-74.0064, 40.7142]}, "type": "Feature", "properties": {"lang": "English", "year": "1918", "title": "Won't you adopt a Belgian prisoner?"}}, {"geometry": {"type": "Point", "coordinates": [-1.25, 51.75]}, "type": "Feature", "properties": {"lang": "English", "year": "1999", "title": "Women's writing on the First World War"}}, {"geometry": {"type": "Point", "coordinates": [-2.21667, 53.5]}, "type": "Feature", "properties": {"lang": "English", "year": "2000", "title": "Women's writing of the First World War"}}, {"geometry": {"type": "Point", "coordinates": [-74.0064, 40.7142]}, "type": "Feature", "properties": {"lang": "English", "year": "1995", "title": "Women writers and the Great War"}}, {"geometry": {"type": "Point", "coordinates": [-0.093145, 51.5142]}, "type": "Feature", "properties": {"lang": "English", "year": "1989", "title": "Women workers in the First World War"}}, {"geometry": {"type": "Point", "coordinates": [-74.0064, 40.7142]}, "type": "Feature", "properties": {"lang": "English", "year": "1918", "title": "Women in industry"}}, {"geometry": {"type": "Point", "coordinates": [-74.0064, 40.7142]}, "type": "Feature", "properties": {"lang": "English", "year": "1918", "title": "Women in industry"}}, {"geometry": {"type": "Point", "coordinates": [-86.5264, 39.1653]}, "type": "Feature", "properties": {"lang": "English", "year": "1918", "title": "Women in industry"}}, {"geometry": {"type": "Point", "coordinates": [-74.0064, 40.7142]}, "type": "Feature", "properties": {"lang": "English", "year": "1915", "title": "Women at the Hague"}}, {"geometry": {"type": "Point", "coordinates": [-74.0064, 40.7142]}, "type": "Feature", "properties": {"lang": "English", "year": "1918", "title": "Women and war work"}}, {"geometry": {"type": "Point", "coordinates": [-0.093145, 51.5142]}, "type": "Feature", "properties": {"lang": "English", "year": "1915", "title": "Women and war"}}, {"geometry": {"type": "Point", "coordinates": [-87.68, 41.84]}, "type": "Feature", "properties": {"lang": "English", "year": "1919", "title": "Women and reconstruction"}}, {"geometry": {"type": "Point", "coordinates": [-74.0064, 40.7142]}, "type": "Feature", "properties": {"lang": "English", "year": "1921", "title": "Women and machines"}}, {"geometry": {"type": "Point", "coordinates": [-81.6667, 41.5]}, "type": "Feature", "properties": {"lang": "English", "year": "1917", "title": "Woman's economic service in time of war"}}, {"geometry": {"type": "Point", "coordinates": [18.6583, 54.3608]}, "type": "Feature", "properties": {"lang": "Polish", "year": "1987", "title": "Wolne miasto Gda\u0144sk w rewizjonistycznej propagandzie niemieckiej 1920-1939"}}, {"geometry": {"type": "Point", "coordinates": [18.0, 53.15]}, "type": "Feature", "properties": {"lang": "German", "year": "1919", "title": "Wohin geh\u00f6rt der Netzedistrikt?"}}, {"geometry": {"type": "Point", "coordinates": [11.3167, 50.9833]}, "type": "Feature", "properties": {"lang": "German", "year": "1916", "title": "Woher kam der Krieg?"}}, {"geometry": {"type": "Point", "coordinates": [-72.9282, 41.3082]}, "type": "Feature", "properties": {"lang": "English", "year": "1916", "title": "With the British Medical Corps in France"}}, {"geometry": {"type": "Point", "coordinates": [-74.0064, 40.7142]}, "type": "Feature", "properties": {"lang": "English", "year": "1924", "title": "With Lawrence in Arabia"}}, {"geometry": {"type": "Point", "coordinates": [11.58, 48.14]}, "type": "Feature", "properties": {"lang": "German", "year": "1917", "title": "Wirtschaftsfragen im zweiten Kriegsjahre"}}, {"geometry": {"type": "Point", "coordinates": [13.3833, 52.5167]}, "type": "Feature", "properties": {"lang": "German", "year": "1918", "title": "Wir schaffen's!"}}, {"geometry": {"type": "Point", "coordinates": [-74.0064, 40.7142]}, "type": "Feature", "properties": {"lang": "English", "year": "2002", "title": "Wilsonianism"}}, {"geometry": {"type": "Point", "coordinates": [-75.5466, 39.7459]}, "type": "Feature", "properties": {"lang": "English", "year": "1991", "title": "Wilsonian statecraft"}}, {"geometry": {"type": "Point", "coordinates": [6.66667, 46.5333]}, "type": "Feature", "properties": {"lang": "French", "year": "1918", "title": "Wilson, la guerre et la paix"}}, {"geometry": {"type": "Point", "coordinates": [-74.0064, 40.7142]}, "type": "Feature", "properties": {"lang": "English", "year": "2005", "title": "Wilson's war"}}, {"geometry": {"type": "Point", "coordinates": [-74.0064, 40.7142]}, "type": "Feature", "properties": {"lang": "English", "year": "1947", "title": "Wilson and the peacemakers"}}, {"geometry": {"type": "Point", "coordinates": [-1.25, 51.75]}, "type": "Feature", "properties": {"lang": "English", "year": "2008", "title": "William and Lawrence Bragg, father and son"}}, {"geometry": {"type": "Point", "coordinates": [-74.0064, 40.7142]}, "type": "Feature", "properties": {"lang": "English", "year": "1917", "title": "Will the real Germany awake?"}}, {"geometry": {"type": "Point", "coordinates": [-87.68, 41.84]}, "type": "Feature", "properties": {"lang": "English", "year": "2003", "title": "Wilfred Owen"}}, {"geometry": {"type": "Point", "coordinates": [13.3833, 52.5167]}, "type": "Feature", "properties": {"lang": "German", "year": "", "title": "Wie's zum Weltkrieg kam"}}, {"geometry": {"type": "Point", "coordinates": [9.18333, 48.7667]}, "type": "Feature", "properties": {"lang": "German", "year": "1916", "title": "Wie wir im Kriege leben"}}, {"geometry": {"type": "Point", "coordinates": [-0.093145, 51.5142]}, "type": "Feature", "properties": {"lang": "German", "year": "1915", "title": "Wie stehen wir heute?"}}, {"geometry": {"type": "Point", "coordinates": [8.55, 47.3667]}, "type": "Feature", "properties": {"lang": "German", "year": "1916", "title": "Wie sich die Welt in einem kosmopolitischen Kopfe malt"}}, {"geometry": {"type": "Point", "coordinates": [13.3833, 52.5167]}, "type": "Feature", "properties": {"lang": "German", "year": "", "title": "Wie es zum Weltkrieg kam!"}}, {"geometry": {"type": "Point", "coordinates": [13.3833, 52.5167]}, "type": "Feature", "properties": {"lang": "German", "year": "1916", "title": "Wie die Polen ihre Freiheit verstehen"}}, {"geometry": {"type": "Point", "coordinates": [-74.0064, 40.7142]}, "type": "Feature", "properties": {"lang": "German", "year": "1916", "title": "Wie dem Krieg ein Ende machen?"}}, {"geometry": {"type": "Point", "coordinates": [13.3833, 52.5167]}, "type": "Feature", "properties": {"lang": "German", "year": "1915", "title": "Wie John Bull seine S\u00f6ldner wirbt"}}, {"geometry": {"type": "Point", "coordinates": [13.3833, 52.5167]}, "type": "Feature", "properties": {"lang": "German", "year": "1915", "title": "Wie John Bull seine S\u00f6ldner wirbt"}}, {"geometry": {"type": "Point", "coordinates": [12.3333, 51.3333]}, "type": "Feature", "properties": {"lang": "German", "year": "1914", "title": "Wie England unser Feind wurde"}}, {"geometry": {"type": "Point", "coordinates": [13.3833, 52.5167]}, "type": "Feature", "properties": {"lang": "German", "year": "1915", "title": "Wie England eine verst\u00e4ndigung mit Deutschland verhinderte"}}, {"geometry": {"type": "Point", "coordinates": [-74.0064, 40.7142]}, "type": "Feature", "properties": {"lang": "English", "year": "1918", "title": "Why workingmen support the war"}}, {"geometry": {"type": "Point", "coordinates": [-0.093145, 51.5142]}, "type": "Feature", "properties": {"lang": "English", "year": "1915", "title": "Why we should state terms of settlement"}}, {"geometry": {"type": "Point", "coordinates": [-0.093145, 51.5142]}, "type": "Feature", "properties": {"lang": "English", "year": "1914", "title": "Why we must not fight"}}, {"geometry": {"type": "Point", "coordinates": [-74.0064, 40.7142]}, "type": "Feature", "properties": {"lang": "English", "year": "1929", "title": "Why we fought"}}, {"geometry": {"type": "Point", "coordinates": [-0.093145, 51.5142]}, "type": "Feature", "properties": {"lang": "English", "year": "1918", "title": "Why we carry on"}}, {"geometry": {"type": "Point", "coordinates": [-0.093145, 51.5142]}, "type": "Feature", "properties": {"lang": "English", "year": "1914", "title": "Why we came to help Belgium"}}, {"geometry": {"type": "Point", "coordinates": [-122.273, 37.8716]}, "type": "Feature", "properties": {"lang": "English", "year": "1979", "title": "Why war?"}}, {"geometry": {"type": "Point", "coordinates": [139.75, 35.6833]}, "type": "Feature", "properties": {"lang": "English", "year": "1921", "title": "Why war between Japan and the United States of America is impossible"}}, {"geometry": {"type": "Point", "coordinates": [-0.093145, 51.5142]}, "type": "Feature", "properties": {"lang": "English", "year": "1917", "title": "Why the war must go on"}}, {"geometry": {"type": "Point", "coordinates": [-0.093145, 51.5142]}, "type": "Feature", "properties": {"lang": "English", "year": "1915", "title": "Why the war cannot be final"}}, {"geometry": {"type": "Point", "coordinates": [-79.3969, 43.6758]}, "type": "Feature", "properties": {"lang": "English", "year": "1914", "title": "Why the empire is at war"}}, {"geometry": {"type": "Point", "coordinates": [-0.093145, 51.5142]}, "type": "Feature", "properties": {"lang": "English", "year": "1916", "title": "Why the allies will win"}}, {"geometry": {"type": "Point", "coordinates": [-74.0064, 40.7142]}, "type": "Feature", "properties": {"lang": "English", "year": "1917", "title": "Why the United States is at war"}}, {"geometry": {"type": "Point", "coordinates": [11.58, 48.14]}, "type": "Feature", "properties": {"lang": "English", "year": "1914", "title": "Why the German nation has gone to war"}}, {"geometry": {"type": "Point", "coordinates": [-0.093145, 51.5142]}, "type": "Feature", "properties": {"lang": "English", "year": "1914", "title": "Why the Dominions came in"}}, {"geometry": {"type": "Point", "coordinates": [-74.0064, 40.7142]}, "type": "Feature", "properties": {"lang": "English", "year": "1918", "title": "Why should there be an amnesty?"}}, {"geometry": {"type": "Point", "coordinates": [-77.0367, 38.895]}, "type": "Feature", "properties": {"lang": "English", "year": "1918", "title": "Why our country is in war"}}, {"geometry": {"type": "Point", "coordinates": [-77.0, 38.917]}, "type": "Feature", "properties": {"lang": "English", "year": "1918", "title": "Why our country is in war"}}, {"geometry": {"type": "Point", "coordinates": [-74.0064, 40.7142]}, "type": "Feature", "properties": {"lang": "English", "year": "1918", "title": "Why must the war go on?"}}, {"geometry": {"type": "Point", "coordinates": [-0.093145, 51.5142]}, "type": "Feature", "properties": {"lang": "English", "year": "1916", "title": "Why mail censorship is vital to Britain"}}, {"geometry": {"type": "Point", "coordinates": [-74.0064, 40.7142]}, "type": "Feature", "properties": {"lang": "English", "year": "1915", "title": "Why is it?"}}, {"geometry": {"type": "Point", "coordinates": [-74.0064, 40.7142]}, "type": "Feature", "properties": {"lang": "English", "year": "1915", "title": "Why is it?"}}, {"geometry": {"type": "Point", "coordinates": [-74.0064, 40.7142]}, "type": "Feature", "properties": {"lang": "English", "year": "1915", "title": "Why is it?"}}, {"geometry": {"type": "Point", "coordinates": [-74.0064, 40.7142]}, "type": "Feature", "properties": {"lang": "English", "year": "1915", "title": "Why is it?"}}, {"geometry": {"type": "Point", "coordinates": [-6.24889, 53.3331]}, "type": "Feature", "properties": {"lang": "English", "year": "1916", "title": "Why is Ireland at war?"}}, {"geometry": {"type": "Point", "coordinates": [-87.68, 41.84]}, "type": "Feature", "properties": {"lang": "English", "year": "1914", "title": "Why is Germany at war?"}}, {"geometry": {"type": "Point", "coordinates": [-74.0064, 40.7142]}, "type": "Feature", "properties": {"lang": "English", "year": "1917", "title": "Why do we fight Germany?"}}, {"geometry": {"type": "Point", "coordinates": [-0.093145, 51.5142]}, "type": "Feature", "properties": {"lang": "English", "year": "1917", "title": "Why Italy is with the allies"}}, {"geometry": {"type": "Point", "coordinates": [-0.093145, 51.5142]}, "type": "Feature", "properties": {"lang": "English", "year": "1914", "title": "Why India is heart and soul with Great Britain"}}, {"geometry": {"type": "Point", "coordinates": [2.34, 48.86]}, "type": "Feature", "properties": {"lang": "English", "year": "1919", "title": "Why Germany capitulated on November 11, 1918"}}, {"geometry": {"type": "Point", "coordinates": [-100.0, 40.0]}, "type": "Feature", "properties": {"lang": "English", "year": "1919", "title": "Why France wants Alsace-Lorraine"}}, {"geometry": {"type": "Point", "coordinates": [-122.45, 37.77]}, "type": "Feature", "properties": {"lang": "English", "year": "1919", "title": "Why China refused to sign the treaty of peace"}}, {"geometry": {"type": "Point", "coordinates": [-0.093145, 51.5142]}, "type": "Feature", "properties": {"lang": "English", "year": "1917", "title": "Why British labour supports the war"}}, {"geometry": {"type": "Point", "coordinates": [-74.0064, 40.7142]}, "type": "Feature", "properties": {"lang": "English", "year": "1917", "title": "Why British labor supports the war"}}, {"geometry": {"type": "Point", "coordinates": [-0.093145, 51.5142]}, "type": "Feature", "properties": {"lang": "English", "year": "1916", "title": "Why Britain is in the war and what she hopes from the future"}}, {"geometry": {"type": "Point", "coordinates": [-0.093145, 51.5142]}, "type": "Feature", "properties": {"lang": "English", "year": "1914", "title": "Why Britain is at war"}}, {"geometry": {"type": "Point", "coordinates": [-71.0603, 42.3583]}, "type": "Feature", "properties": {"lang": "English", "year": "1918", "title": "Why Armenia should be free"}}, {"geometry": {"type": "Point", "coordinates": [-75.1638, 39.9523]}, "type": "Feature", "properties": {"lang": "English", "year": "1915", "title": "Why Americans should oppose Germany in the war"}}, {"geometry": {"type": "Point", "coordinates": [-77.0367, 38.895]}, "type": "Feature", "properties": {"lang": "English", "year": "1918", "title": "Why America fights Germany"}}, {"geometry": {"type": "Point", "coordinates": [-0.093145, 51.5142]}, "type": "Feature", "properties": {"lang": "English", "year": "1917", "title": "Who was responsible for the war--and why?"}}, {"geometry": {"type": "Point", "coordinates": [2.34, 48.86]}, "type": "Feature", "properties": {"lang": "English", "year": "1915", "title": "Who wanted war?"}}, {"geometry": {"type": "Point", "coordinates": [-74.0064, 40.7142]}, "type": "Feature", "properties": {"lang": "English", "year": "1915", "title": "Who is to blame for the war?"}}, {"geometry": {"type": "Point", "coordinates": [-74.0064, 40.7142]}, "type": "Feature", "properties": {"lang": "English", "year": "1915", "title": "Who is to blame for the war?"}}, {"geometry": {"type": "Point", "coordinates": [-74.0064, 40.7142]}, "type": "Feature", "properties": {"lang": "English", "year": "1918", "title": "Who is paying for this war?"}}, {"geometry": {"type": "Point", "coordinates": [-0.093145, 51.5142]}, "type": "Feature", "properties": {"lang": "English", "year": "1915", "title": "Who caused the war"}}, {"geometry": {"type": "Point", "coordinates": [8.68, 50.12]}, "type": "Feature", "properties": {"lang": "English", "year": "1914", "title": "Who broke the peace of Europe?"}}, {"geometry": {"type": "Point", "coordinates": [8.68, 50.12]}, "type": "Feature", "properties": {"lang": "English", "year": "1914", "title": "Who broke the peace of Europe?"}}, {"geometry": {"type": "Point", "coordinates": [8.68, 50.12]}, "type": "Feature", "properties": {"lang": "English", "year": "1914", "title": "Who broke the peace of Europe?"}}, {"geometry": {"type": "Point", "coordinates": [8.68, 50.12]}, "type": "Feature", "properties": {"lang": "English", "year": "1914", "title": "Who broke the peace of Europe?"}}, {"geometry": {"type": "Point", "coordinates": [-79.3969, 43.6758]}, "type": "Feature", "properties": {"lang": "English", "year": "1918", "title": "Whither?"}}, {"geometry": {"type": "Point", "coordinates": [-0.216667, 51.9667]}, "type": "Feature", "properties": {"lang": "English", "year": "1914", "title": "Where does the peace party stand?"}}, {"geometry": {"type": "Point", "coordinates": [-0.25, 51.8333]}, "type": "Feature", "properties": {"lang": "English", "year": "1914", "title": "Where does the peace party stand?"}}, {"geometry": {"type": "Point", "coordinates": [-2.0, 53.0]}, "type": "Feature", "properties": {"lang": "English", "year": "1914", "title": "Where does the peace party stand?"}}, {"geometry": {"type": "Point", "coordinates": [-0.093145, 51.5142]}, "type": "Feature", "properties": {"lang": "English", "year": "1918", "title": "Where angels fear to tread"}}, {"geometry": {"type": "Point", "coordinates": [-75.1638, 39.9523]}, "type": "Feature", "properties": {"lang": "English", "year": "1918", "title": "When will the war end?"}}, {"geometry": {"type": "Point", "coordinates": [-75.1638, 39.9523]}, "type": "Feature", "properties": {"lang": "English", "year": "1918", "title": "When will the war end?"}}, {"geometry": {"type": "Point", "coordinates": [-0.093145, 51.5142]}, "type": "Feature", "properties": {"lang": "English", "year": "1917", "title": "When the war will end"}}, {"geometry": {"type": "Point", "coordinates": [-71.0603, 42.3583]}, "type": "Feature", "properties": {"lang": "English", "year": "1918", "title": "When the tide turned"}}, {"geometry": {"type": "Point", "coordinates": [-74.0064, 40.7142]}, "type": "Feature", "properties": {"lang": "English", "year": "1916", "title": "What the war is teaching"}}, {"geometry": {"type": "Point", "coordinates": [-74.0064, 40.7142]}, "type": "Feature", "properties": {"lang": "English", "year": "1917", "title": "What the victory or defeat of Germany means to every American"}}, {"geometry": {"type": "Point", "coordinates": [-74.0064, 40.7142]}, "type": "Feature", "properties": {"lang": "English", "year": "1917", "title": "What the victory or defeat of Germany means to every American"}}, {"geometry": {"type": "Point", "coordinates": [-74.0064, 40.7142]}, "type": "Feature", "properties": {"lang": "English", "year": "1917", "title": "What the victory or defeat of Germany means to every American"}}, {"geometry": {"type": "Point", "coordinates": [-74.0064, 40.7142]}, "type": "Feature", "properties": {"lang": "English", "year": "1917", "title": "What the victory or defeat of Germany means to every American"}}, {"geometry": {"type": "Point", "coordinates": [-74.0064, 40.7142]}, "type": "Feature", "properties": {"lang": "English", "year": "1917", "title": "What the victory or defeat of Germany means to every American"}}, {"geometry": {"type": "Point", "coordinates": [-74.0064, 40.7142]}, "type": "Feature", "properties": {"lang": "English", "year": "1917", "title": "What the victory or defeat of Germany means to every American"}}, {"geometry": {"type": "Point", "coordinates": [-74.0064, 40.7142]}, "type": "Feature", "properties": {"lang": "English", "year": "1917", "title": "What the victory or defeat of Germany means to every American"}}, {"geometry": {"type": "Point", "coordinates": [-74.0064, 40.7142]}, "type": "Feature", "properties": {"lang": "English", "year": "1917", "title": "What the victory or defeat of Germany means to every American"}}, {"geometry": {"type": "Point", "coordinates": [-77.0367, 38.895]}, "type": "Feature", "properties": {"lang": "English", "year": "1917", "title": "What the railroads are doing to help win the war"}}, {"geometry": {"type": "Point", "coordinates": [-0.093145, 51.5142]}, "type": "Feature", "properties": {"lang": "English", "year": "1915", "title": "What the allies are fighting for"}}, {"geometry": {"type": "Point", "coordinates": [-88.2073, 40.1106]}, "type": "Feature", "properties": {"lang": "English", "year": "1918", "title": "What the United States has achieved in war activities and moral leadership"}}, {"geometry": {"type": "Point", "coordinates": [-71.0603, 42.3583]}, "type": "Feature", "properties": {"lang": "English", "year": "1918", "title": "What the American Red Cross has been doing the past year"}}, {"geometry": {"type": "Point", "coordinates": [-74.0064, 40.7142]}, "type": "Feature", "properties": {"lang": "English", "year": "1917", "title": "What shall we do for the children in time of war?"}}, {"geometry": {"type": "Point", "coordinates": [-74.0064, 40.7142]}, "type": "Feature", "properties": {"lang": "English", "year": "1919", "title": "What shall the coming of peace mean to the working children of America?"}}, {"geometry": {"type": "Point", "coordinates": [-73.6343, 40.7268]}, "type": "Feature", "properties": {"lang": "English", "year": "1928", "title": "What price peace?"}}, {"geometry": {"type": "Point", "coordinates": [-74.0064, 40.7142]}, "type": "Feature", "properties": {"lang": "English", "year": "1917", "title": "What our country asks of its young women"}}, {"geometry": {"type": "Point", "coordinates": [-75.1638, 39.9523]}, "type": "Feature", "properties": {"lang": "English", "year": "1917", "title": "What other nations have done to help their disabled soldiers and sailors"}}, {"geometry": {"type": "Point", "coordinates": [-0.093145, 51.5142]}, "type": "Feature", "properties": {"lang": "English", "year": "1915", "title": "What is the matter with England?"}}, {"geometry": {"type": "Point", "coordinates": [-0.093145, 51.5142]}, "type": "Feature", "properties": {"lang": "English", "year": "1916", "title": "What is patriotism?"}}, {"geometry": {"type": "Point", "coordinates": [-96.0, 60.0]}, "type": "Feature", "properties": {"lang": "English", "year": "1918", "title": "What is food control?"}}, {"geometry": {"type": "Point", "coordinates": [30.2642, 59.8944]}, "type": "Feature", "properties": {"lang": "English", "year": "1918", "title": "What is a peace program?"}}, {"geometry": {"type": "Point", "coordinates": [-0.093145, 51.5142]}, "type": "Feature", "properties": {"lang": "English", "year": "1916", "title": "What is Great Britain doing?"}}, {"geometry": {"type": "Point", "coordinates": [-0.093145, 51.5142]}, "type": "Feature", "properties": {"lang": "English", "year": "1916", "title": "What is England doing?"}}, {"geometry": {"type": "Point", "coordinates": [-87.68, 41.84]}, "type": "Feature", "properties": {"lang": "English", "year": "1919", "title": "What happens in military prisons"}}, {"geometry": {"type": "Point", "coordinates": [-70.7667, 42.5667]}, "type": "Feature", "properties": {"lang": "English", "year": "1918", "title": "What fight ye for?"}}, {"geometry": {"type": "Point", "coordinates": [-74.0064, 40.7142]}, "type": "Feature", "properties": {"lang": "English", "year": "1917", "title": "What does the victory or defeat of Germany mean to the United States?"}}, {"geometry": {"type": "Point", "coordinates": [-74.0064, 40.7142]}, "type": "Feature", "properties": {"lang": "English", "year": "1917", "title": "What does the victory or defeat of Germany mean to the United States?"}}, {"geometry": {"type": "Point", "coordinates": [-74.0064, 40.7142]}, "type": "Feature", "properties": {"lang": "English", "year": "1917", "title": "What does the victory or defeat of Germany mean to the United States?"}}, {"geometry": {"type": "Point", "coordinates": [-74.0064, 40.7142]}, "type": "Feature", "properties": {"lang": "English", "year": "1917", "title": "What does the victory or defeat of Germany mean to the United States?"}}, {"geometry": {"type": "Point", "coordinates": [144.963, -37.8139]}, "type": "Feature", "properties": {"lang": "English", "year": "1983", "title": "What did you do in the war, Daddy?"}}, {"geometry": {"type": "Point", "coordinates": [-74.0064, 40.7142]}, "type": "Feature", "properties": {"lang": "English", "year": "1918", "title": "What about the secret treaties?"}}, {"geometry": {"type": "Point", "coordinates": [-77.0367, 38.895]}, "type": "Feature", "properties": {"lang": "English", "year": "1919", "title": "What France has done in the war"}}, {"geometry": {"type": "Point", "coordinates": [-74.0064, 40.7142]}, "type": "Feature", "properties": {"lang": "English", "year": "1920", "title": "What France did for us"}}, {"geometry": {"type": "Point", "coordinates": [-0.093145, 51.5142]}, "type": "Feature", "properties": {"lang": "English", "year": "1916", "title": "What Britain is fighting for"}}, {"geometry": {"type": "Point", "coordinates": [-0.093145, 51.5142]}, "type": "Feature", "properties": {"lang": "English", "year": "1916", "title": "What Britain is fighting for"}}, {"geometry": {"type": "Point", "coordinates": [-0.093145, 51.5142]}, "type": "Feature", "properties": {"lang": "English", "year": "1918", "title": "What Britain has done in the war"}}, {"geometry": {"type": "Point", "coordinates": [18.6583, 54.3608]}, "type": "Feature", "properties": {"lang": "German", "year": "1918", "title": "Westpreussen deutsch, seine Bl\u00fcte!"}}, {"geometry": {"type": "Point", "coordinates": [13.3833, 52.5167]}, "type": "Feature", "properties": {"lang": "German", "year": "1915", "title": "Weshalb die Deutschen im Auslande unbeliebt sind"}}, {"geometry": {"type": "Point", "coordinates": [13.3833, 52.5167]}, "type": "Feature", "properties": {"lang": "German", "year": "1918", "title": "Werkblatt f\u00fcr Sparer"}}, {"geometry": {"type": "Point", "coordinates": [12.3333, 51.3333]}, "type": "Feature", "properties": {"lang": "German", "year": "1915", "title": "Wer hat den krieg verbrochen?"}}, {"geometry": {"type": "Point", "coordinates": [13.3833, 52.5167]}, "type": "Feature", "properties": {"lang": "German", "year": "1917", "title": "Wer hat Recht?"}}, {"geometry": {"type": "Point", "coordinates": [13.3833, 52.5167]}, "type": "Feature", "properties": {"lang": "German", "year": "1915", "title": "Wenn es gilt f\u00fcrs Vaterland"}}, {"geometry": {"type": "Point", "coordinates": [13.3833, 52.5167]}, "type": "Feature", "properties": {"lang": "German", "year": "1918", "title": "Wenn die Feinde ins Land k\u00e4men"}}, {"geometry": {"type": "Point", "coordinates": [11.58, 48.14]}, "type": "Feature", "properties": {"lang": "German", "year": "1942", "title": "Weltkriegshetze der U.S.A.-Presse"}}, {"geometry": {"type": "Point", "coordinates": [13.3833, 52.5167]}, "type": "Feature", "properties": {"lang": "German", "year": "1942", "title": "Weltkriegshetze der U.S.A.-Presse"}}, {"geometry": {"type": "Point", "coordinates": [8.2, 53.1667]}, "type": "Feature", "properties": {"lang": "German", "year": "1925", "title": "Weltkriegsende an der mazedonischen Front"}}, {"geometry": {"type": "Point", "coordinates": [13.3833, 52.5167]}, "type": "Feature", "properties": {"lang": "German", "year": "1936", "title": "Weltkrieg und propaganda"}}, {"geometry": {"type": "Point", "coordinates": [8.70139, 49.2978]}, "type": "Feature", "properties": {"lang": "German", "year": "1922", "title": "Weltkrieg und Zeitungswesen"}}, {"geometry": {"type": "Point", "coordinates": [13.3833, 52.5167]}, "type": "Feature", "properties": {"lang": "German", "year": "1918", "title": "Weltkrieg und Flotte"}}, {"geometry": {"type": "Point", "coordinates": [9.18333, 48.7667]}, "type": "Feature", "properties": {"lang": "German", "year": "1932", "title": "Weltkrieg ohne waffen"}}, {"geometry": {"type": "Point", "coordinates": [13.3833, 52.5167]}, "type": "Feature", "properties": {"lang": "German", "year": "1932", "title": "Weltkrieg ohne waffen"}}, {"geometry": {"type": "Point", "coordinates": [11.58, 48.14]}, "type": "Feature", "properties": {"lang": "German", "year": "1938", "title": "Weltfreimauerei, Weltrevolution, Weltrepublik"}}, {"geometry": {"type": "Point", "coordinates": [13.3833, 52.5167]}, "type": "Feature", "properties": {"lang": "German", "year": "1915", "title": "Wehe den Besiegten!"}}, {"geometry": {"type": "Point", "coordinates": [-80.13, 25.7907]}, "type": "Feature", "properties": {"lang": "English", "year": "2004", "title": "Weapons of mass dissemination"}}, {"geometry": {"type": "Point", "coordinates": [-1.25, 51.75]}, "type": "Feature", "properties": {"lang": "English", "year": "1914", "title": "We see with regret the names of many German professors and men of science, whom we regard with respect and, in some cases, with personal friendship, appended to a denunciation of Great Britain so utterly baseless that we can hardly believe that it expresses their spontaneous or considered opinion"}}, {"geometry": {"type": "Point", "coordinates": [-74.0064, 40.7142]}, "type": "Feature", "properties": {"lang": "English", "year": "1915", "title": "We are as unprepared for peace as we are for war"}}, {"geometry": {"type": "Point", "coordinates": [-83.1, 42.38]}, "type": "Feature", "properties": {"lang": "English", "year": "1918", "title": "Washington in war times"}}, {"geometry": {"type": "Point", "coordinates": [12.3333, 51.3333]}, "type": "Feature", "properties": {"lang": "German", "year": "1915", "title": "Was verb\u00fcrgt den Sieg?"}}, {"geometry": {"type": "Point", "coordinates": [12.3333, 51.3333]}, "type": "Feature", "properties": {"lang": "German", "year": "1917", "title": "Was uns der Weltkrieg bringen muss, wenn der Friede ein dauernder sein soll"}}, {"geometry": {"type": "Point", "coordinates": [-74.0064, 40.7142]}, "type": "Feature", "properties": {"lang": "English", "year": "1918", "title": "Was it a dream?"}}, {"geometry": {"type": "Point", "coordinates": [13.3833, 52.5167]}, "type": "Feature", "properties": {"lang": "German", "year": "1915", "title": "Was ich auf dem Kriegsschauplatz sah"}}, {"geometry": {"type": "Point", "coordinates": [6.93333, 50.95]}, "type": "Feature", "properties": {"lang": "German", "year": "1940", "title": "Warum wir den Ruhrkampf verloren"}}, {"geometry": {"type": "Point", "coordinates": [13.3833, 52.5167]}, "type": "Feature", "properties": {"lang": "German", "year": "1917", "title": "Warum ich es mit Deutschland in diesem Weltkriege halte?"}}, {"geometry": {"type": "Point", "coordinates": [7.1, 50.7333]}, "type": "Feature", "properties": {"lang": "German", "year": "1915", "title": "Warum hassen uns die V\u00f6lker?"}}, {"geometry": {"type": "Point", "coordinates": [-2.55972, 51.0353]}, "type": "Feature", "properties": {"lang": "English", "year": "1997", "title": "Wartime disasters at sea"}}, {"geometry": {"type": "Point", "coordinates": [-2.63333, 50.95]}, "type": "Feature", "properties": {"lang": "English", "year": "1997", "title": "Wartime disasters at sea"}}, {"geometry": {"type": "Point", "coordinates": [-3.0, 51.0833]}, "type": "Feature", "properties": {"lang": "English", "year": "1997", "title": "Wartime disasters at sea"}}]}