{"type": "FeatureCollection", "features": [{"geometry": {"type": "point", "coordinates": [54.6833, 25.3167]}, "type": "Feature", "properties": {"lang": "Yiddish", "year": "1924", "title": "\u1e7een di \u1e7fegn kraytsn zikh"}}, {"geometry": {"type": "point", "coordinates": [41.0186, 28.9647]}, "type": "Feature", "properties": {"lang": "Turkish", "year": "2007", "title": "\u0130stikl\u00e2l Harbi"}}, {"geometry": {"type": "point", "coordinates": [51.3333, 12.3333]}, "type": "Feature", "properties": {"lang": "German", "year": "1914", "title": "\u00dcber den wahrhaften Krieg"}}, {"geometry": {"type": "point", "coordinates": [52.5167, 13.3833]}, "type": "Feature", "properties": {"lang": "German", "year": "1917", "title": "\u00dcber den U-Boot-Krieg"}}, {"geometry": {"type": "point", "coordinates": [48.2, 16.3667]}, "type": "Feature", "properties": {"lang": "German", "year": "1914", "title": "\u00d6sterreichische Feldbriefe"}}, {"geometry": {"type": "point", "coordinates": [48.2, 16.3667]}, "type": "Feature", "properties": {"lang": "German", "year": "1914", "title": "\u00d6sterreichische Feldbriefe"}}, {"geometry": {"type": "point", "coordinates": [48.2, 16.3667]}, "type": "Feature", "properties": {"lang": "German", "year": "1914", "title": "\u00d6sterreichische Feldbriefe"}}, {"geometry": {"type": "point", "coordinates": [39.9272, 32.8644]}, "type": "Feature", "properties": {"lang": "Turkish", "year": "2009", "title": "\u00c7anakkale Tahkimat Haritas\u0131"}}, {"geometry": {"type": "point", "coordinates": [48.86, 2.34]}, "type": "Feature", "properties": {"lang": "French", "year": "1914", "title": "\u00c1 l'ordre du jour"}}, {"geometry": {"type": "point", "coordinates": [48.86, 2.34]}, "type": "Feature", "properties": {"lang": "French", "year": "1922", "title": "\u00c0 travers les lignes ennemies"}}, {"geometry": {"type": "point", "coordinates": [48.86, 2.34]}, "type": "Feature", "properties": {"lang": "French", "year": "1916", "title": "\u00c0 la Belgique"}}, {"geometry": {"type": "point", "coordinates": [48.86, 2.34]}, "type": "Feature", "properties": {"lang": "Spanish", "year": "1915", "title": "\u00bfC\u00f3mo puede ser justa la guerra alguna vez?"}}, {"geometry": {"type": "point", "coordinates": [33.3333, 44.3833]}, "type": "Feature", "properties": {"lang": "Arabic", "year": "1984", "title": "I\u1e25til\u0101l al-Bar\u012b\u1e6d\u0101n\u012b wa-al-\u1e63i\u1e25\u0101fah al-\u02bbIr\u0101q\u012byah"}}, {"geometry": {"type": "point", "coordinates": [51.05, 13.7333]}, "type": "Feature", "properties": {"lang": "English", "year": "1914", "title": "[With Germany's telegraphic communication cut off from America a net of lies has been spun about her]"}}, {"geometry": {"type": "point", "coordinates": [52.5167, 13.3]}, "type": "Feature", "properties": {"lang": "German", "year": "1914", "title": "[Ursachen des gegenw\u00e4rtigen Weltkrieges]"}}, {"geometry": {"type": "point", "coordinates": [52.5167, 13.3833]}, "type": "Feature", "properties": {"lang": "German", "year": "1914", "title": "[Ursachen des gegenw\u00e4rtigen Weltkrieges]"}}, {"geometry": {"type": "point", "coordinates": [48.86, 2.34]}, "type": "Feature", "properties": {"lang": "French", "year": "1919", "title": "question des nationalit\u00e9s qui occupent des territoires russes...]"}}, {"geometry": {"type": "point", "coordinates": [42.3709, -71.1162]}, "type": "Feature", "properties": {"lang": "English", "year": "1918", "title": "miscellaneous collection of articles and letters by or about Ruth Holden, Radcliffe A.B., Harvard A.M., Fellow of Newnham College, paleobotanist]"}}, {"geometry": {"type": "point", "coordinates": [42.3709, -71.1162]}, "type": "Feature", "properties": {"lang": "English", "year": "1918", "title": "miscellaneous collection of articles and letters by or about Ruth Holden, Radcliffe A.B., Harvard A.M., Fellow of Newnham College, paleobotanist]"}}, {"geometry": {"type": "point", "coordinates": [41.84, -87.68]}, "type": "Feature", "properties": {"lang": "German", "year": "1915", "title": "Zur Gr\u00fcndung einer deutsch-amerikanischen wirtschaftlichen Vereinigung"}}, {"geometry": {"type": "point", "coordinates": [48.7667, 9.18333]}, "type": "Feature", "properties": {"lang": "German", "year": "1915", "title": "Zum Weltvolk hindurch!"}}, {"geometry": {"type": "point", "coordinates": [52.5167, 13.3833]}, "type": "Feature", "properties": {"lang": "German", "year": "1915", "title": "Zum Schowuausfest, dem Tag der Offenbarung, 1915"}}, {"geometry": {"type": "point", "coordinates": [52.5167, 13.3833]}, "type": "Feature", "properties": {"lang": "German", "year": "1916", "title": "Zum Schowuausfest (dem Tage der Offenbarung) 1916"}}, {"geometry": {"type": "point", "coordinates": [52.5167, 13.3833]}, "type": "Feature", "properties": {"lang": "German", "year": "1916", "title": "Zum Passahfest 1916"}}, {"geometry": {"type": "point", "coordinates": [52.5167, 13.3833]}, "type": "Feature", "properties": {"lang": "German", "year": "1915", "title": "Zum Passahfest 1915"}}]}